名称,住所,緯度,経度
北海道,日本、北海道,43.2203266,142.8634737
旭川市科学館 サイパル,日本、〒078-8329 北海道旭川市宮前１条３丁目３−３２,43.7563095,142.370507
旭川市博物館,日本、〒070-8003 北海道旭川市神楽３条７丁目１−４５ 旭川市博物館,43.7600653,142.3510309
足寄動物化石博物館,日本、〒089-3727 北海道足寄郡足寄町郊南１丁目２９−２５,43.2311098,143.5434443
網走市立郷土博物館,日本、〒093-0041 北海道網走市桂町１丁目１,44.0177056,144.2690717
石原裕次郎記念館,日本、〒047-0008 北海道小樽市築港５−５−１０,43.185245,141.022778
井上靖記念館,日本、〒070-0875 北海道旭川市春光５条７丁目５,43.805072,142.3636877
岩見沢郷土科学館,日本、〒068-0833 北海道岩見沢市志文町８０９−１,43.1615121,141.7835681
江差町郷土資料館,日本、〒043-0034 北海道檜山郡江差町中歌町１１２,41.8681747,140.1287897
エドウィン・ダン記念館,日本、〒005-0015 北海道札幌市南区真駒内泉町１丁目６,42.988981,141.352367
恵庭市郷土資料館,日本、〒061-1375 北海道恵庭市南島松１５７−２,42.909173,141.599732
小樽市総合博物館,日本、〒047-0041 北海道小樽市手宮１丁目３−６,43.2112693,141.001277
小樽文学館,日本、〒047-0031 北海道小樽市色内１丁目９−５,43.196764,140.999853
永倉新八記念館,日本、〒047-0021 北海道小樽市入船１丁目７−１,43.1875226,141.0025882
北海道立オホーツク流氷科学センター,日本、〒094-0023 北海道紋別市元紋別１１−６,44.3283409,143.3750043
オホーツク流氷館,日本、〒093-0044 北海道網走市天都山２４４−３,44.0004555,144.2395563
かかし古里館,日本、〒048-2202 北海道岩内郡共和町南幌似１０３−１３,42.9801975,140.6055658
旧函館博物館1号・2号,,,
釧路市こども遊学館,日本、〒085-0017 北海道釧路市幸町１０丁目２,42.9867348,144.3790161
釧路市立博物館,日本、〒085-0822 北海道釧路市春湖台１−７,42.9745993,144.4033678
港文館,日本、〒085-0847 北海道釧路市大町２丁目１−１２,42.9801762,144.3822612
札幌市アイヌ文化交流センター,日本、〒061-2274 北海道札幌市南区小金湯２７,42.9689242,141.2198004
札幌市交通資料館,日本、〒005-0011 北海道札幌市南区真駒内東町１丁目１,43.0054317,141.3645212
札幌市資料館,日本、〒060-0042 北海道札幌市中央区大通西１３丁目,43.058566,141.3374673
札幌市水道記念館,日本、〒064-0942 北海道札幌市中央区伏見４丁目６−１７ 札幌市水道記念館,43.0330011,141.3287623
札幌市青少年科学館,日本、〒004-0051 北海道札幌市厚別区厚別中央１条５丁目２−２０ 札幌市青少年科学館,43.0360985,141.4722638
札幌市手稲記念館,日本、〒063-0062 北海道札幌市西区西町南２１丁目３−１０,43.0856818,141.2736028
札幌市豊平川さけ科学館,日本、〒005-0017 北海道札幌市南区真駒内公園２−１,43.0010721,141.3432459
札幌市埋蔵文化財センター 札幌市中央区,日本、〒064-0922 北海道札幌市中央区南２２条西１３丁目１−１,43.0300833,141.3404833
サッポロビール博物館,日本、〒065-8633 北海道札幌市東区北７条東９丁目１−１,43.0714671,141.3689124
札幌村郷土記念館,日本、〒065-0013 北海道札幌市東区北１３条東１６丁目２−６ 札幌村郷土記念館,43.0805093,141.376767
沙流川歴史館,日本、〒055-0101 北海道沙流郡平取町二風谷２２７−２,42.637379,142.155882
標津サーモン科学館,日本、〒086-1631 北海道標津郡標津町北１条西６丁目１−１,43.659719,145.1158841
市立函館博物館,日本、〒040-0044 北海道函館市青柳町１７−１,41.7559785,140.7147983
北海道坂本龍馬記念館,日本、〒040-0053 北海道函館市末広町８−６,41.763946,140.7185927
土方・啄木浪漫館,日本、〒040-0022 北海道函館市日乃出町２５−４ 土方・啄木浪漫館,41.7727778,140.7549937
サケのふるさと　千歳水族館,日本、〒066-0028 北海道千歳市花園２丁目４−３１２,42.8327899,141.6591892
月形樺戸博物館,日本、〒061-0500 北海道樺戸郡月形町月形１２１９,43.3387383,141.6692403
大鵬相撲記念館,日本、〒088-3465 北海道川上郡弟子屈町川湯温泉２丁目１−２０,43.635321,144.437692
弟子屈町屈斜路コタンアイヌ民俗資料館,日本、〒088-3351 北海道川上郡弟子屈町屈斜路 屈斜路市街１条通１４番地,43.5632374,144.3421474
天体工場,,,
苫小牧市科学センター,日本、〒053-0018 北海道苫小牧市旭町３丁目１−１２,42.6317614,141.6048969
中標津町郷土館 標津郡中標津町丸山,日本、〒086-1164 北海道標津郡中標津町丸山２丁目１５,43.553504,144.97078
ナリタブライアン記念館,日本、〒059-2414 北海道新冠郡新冠町朝日２７３−６,42.39914,142.3673505
日本銀行旧小樽支店金融資料館,日本、〒047-0031 北海道小樽市色内１丁目１１−１６,43.1961722,141.0004638
二風谷アイヌ文化博物館,日本、〒055-0101 北海道沙流郡平取町二風谷５５−５５,42.6369479,142.1566998
登別市郷土資料館,日本、〒059-0016 北海道登別市片倉町６丁目２７−２,42.4205304,141.0819363
博物館網走監獄,日本、〒099-2421 北海道網走市呼人１−１,43.9964726,144.2305079
函館市青函連絡船記念館摩周丸,日本、〒040-0063 北海道函館市若松町１２−１２番地先,41.7728918,140.7217881
函館市文学館,日本、〒040-0053 北海道函館市末広町２２−５,41.7663509,140.7132731
函館市北洋資料館,日本、〒040-0001 北海道函館市五稜郭町３７−８ 函館市北洋資料館,41.7938279,140.7560284
ピアソン記念館,日本、〒090-0036 北海道北見市幸町７丁目４−２８,43.8064541,143.8869499
東川町郷土館,日本、〒071-1423 北海道上川郡東川町東町１丁目１６−２,43.699595,142.5110123
日高山脈博物館,日本、〒055-2301 北海道沙流郡日高町本町東１丁目２９７−１２,42.877109,142.442302
福島町青函トンネル記念館,日本、〒049-1331 北海道松前郡福島町三岳３２−１,41.4853395,140.2546929
ふらび,日本、〒079-1571 北海道富良野市山部西１４線２,43.2709777,142.3733068
北欧館パン博物館,日本、〒063-0006 北海道札幌市西区山の手６条１丁目３−３０,43.075987,141.2937838
北鎮記念館,日本、〒070-0902 北海道旭川市春光町 国有無番地,43.7883925,142.3648827
北網圏北見文化センター,日本、〒090-0015 北海道北見市公園町１,43.818125,143.90373
北海道博物館 札幌市厚別区厚別,日本、〒004-0006 北海道札幌市厚別区厚別町小野幌５３−２,43.053134,141.496665
北海道開拓の村,日本、〒004-0006 北海道札幌市厚別区厚別町小野幌５０−１,43.0482239,141.4969955
北海道立アイヌ総合センター,日本、〒060-0002 北海道札幌市中央区北２条西７丁目 かでる2･7ビル 7階,43.0630648,141.3454639
北海道立文学館,日本、〒064-0931 北海道札幌市中央区中島公園１−４,43.044276,141.3561939
北海道立埋蔵文化財センター,日本、〒069-0832 北海道江別市西野幌６８５−１,43.060131,141.494509
北海道立北方民族博物館 網走市字潮見,日本、〒093-0042 北海道網走市潮見３０９−１,43.9968203,144.2397519
北方館 根室市納沙布岬36-6,日本、〒087-0165 北海道根室市納沙布３６−６,43.3862029,145.8116483
北方領土館 標津郡標津町,日本、〒086-1632 北海道標津郡標津町北２条東１丁目１−１４,43.662787,145.132044
三浦綾子記念文学館,日本、〒070-8007 北海道旭川市神楽７条８丁目２−１５,43.7535844,142.3480428
三笠市立博物館,日本、〒068-2111 北海道三笠市幾春別錦町１丁目２１２−１,43.2612848,141.9626283
三笠鉄道記念館,日本、〒068-2145 北海道三笠市幌内町２丁目２８７,43.227314,141.904091
宮尾登美子文学記念館,日本、〒052-0022 北海道伊達市梅本町５７−１,42.4717413,140.873355
むかわ町穂別地球体験館,日本、〒054-0211 北海道勇払郡むかわ町穂別７９−５,42.766838,142.134906
室蘭市青少年科学館,日本、〒051-0015 北海道室蘭市本町２丁目２−１,42.314153,140.973624
紋別市立博物館,日本、〒094-0005 北海道紋別市幸町３丁目１−４ 1番4号,44.3556316,143.3532837
八雲町郷土資料館,日本、〒049-3112 北海道二海郡八雲町末広町１５４,42.25452,140.268235
山の水族館,日本、〒091-0153 北海道北見市留辺蘂町松山１−４,43.7547404,143.5008796
夕張市石炭博物館,日本、〒068-0401 北海道夕張市高松 7番地,43.0684029,141.9891216
横綱千代の山・千代の富士記念館,日本、〒049-1312 北海道松前郡福島町福島１９０,41.4791069,140.2556
留萌市海のふるさと館,日本、〒077-0048 北海道留萌市大町２丁目,43.9461194,141.629726
開陽丸記念館,日本、〒043-0041 北海道江差町姥神町１−１０,41.8658488,140.1173717
菊池季一郎記念館,,,
稚内市開基百年記念塔・北方記念館,日本、〒097-0000 北海道稚内市稚内村ヤムワッカナイ,45.4168379,141.663422
稚内市立ノシャップ寒流水族館,日本、〒097-0026 北海道稚内市ノシャップ２丁目２−１６,45.4492716,141.6449214
和寒町郷土資料館,日本、〒098-0133 北海道上川郡和寒町北町６１,44.0297548,142.4105313
東北,日本、東北地方,39.1362124,141.1499861
青森県,日本、青森県,40.7657077,140.9175879
青森県立郷土館,日本、〒030-0802 青森県青森市本町２丁目８−１４,40.827291,140.748659
青森県立三沢航空科学館,日本、〒033-0022 青森県三沢市三沢北山１５８,40.7081261,141.3912119
青森市森林博物館,日本、〒038-0012 青森県青森市柳川２丁目４−３７,40.8314743,140.7257751
安藤昌益資料館,日本、〒031-0086 青森県八戸市八日町３,40.5108059,141.4919951
青函連絡船メモリアルシップ八甲田丸,日本、〒038-0012 青森県青森市柳川１丁目４−１１２−１５ 地先,40.8315295,140.7362873
太宰治記念館 「斜陽館」,日本、〒037-0202 青森県五所川原市金木町朝日山４１２−１,40.9026372,140.4553767
津軽こけし館,日本、〒036-0412 青森県黒石市袋富山７２−１,40.6063359,140.6765326
八戸市縄文学習館,日本、〒031-0023 青森県八戸市是川中居３−１ 八戸市縄文学習館,40.4745102,141.490911
八戸市博物館,日本、〒039-1166 青森県八戸市根城東構３５−１,40.5083623,141.4644784
八戸市埋蔵文化財センター 是川縄文館,"Yokoyama-１ Korekawa, Hachinohe, Aomori 031-0023 日本",40.4756869,141.4881835
八戸市水産科学館,日本、〒031-0841 青森県八戸市鮫町下松苗場１４−３３ 水産科学館マリエント,40.5397074,141.5627589
はっち,日本、〒031-0032 青森県八戸市三日町１１−１,40.510028,141.4906679
みちのく北方漁船博物館,日本、〒038-0002 青森県青森市沖館２丁目２−１,40.8373345,140.725324
みちのく歴史人物資料館,,,
むつ科学技術館,日本、〒035-0022 青森県むつ市関根北関根６９３,41.3638136,141.2362688
岩手県,日本、岩手県,39.5832989,141.2534574
石と賢治のミュージアム,日本、〒029-0303 岩手県一関市東山町松川滝ノ沢１４９−１,38.9786821,141.2384239
岩手県立博物館,日本、〒020-0102 岩手県盛岡市上田松屋敷３４,39.7555078,141.1539967
一関市博物館,日本、〒021-0101 岩手県一関市厳美町沖野々−２１５−１,38.9466624,141.0518121
奥州市牛の博物館,日本、〒029-4205 岩手県奥州市前沢南陣場１０３−１,39.026935,141.1239416
北上市立博物館,日本、〒024-0043 岩手県北上市立花１４地割５９ 北上市立博物館,39.271378,141.13042
サトウハチロー記念館,日本、〒024-0043 岩手県北上市立花１３地割１３−６７−３,39.272914,141.127826
太陽と風の家,,,
たたら館,,,
遠野蔵の道ギャラリー,日本、〒028-0523 岩手県遠野市中央通り４−２８,39.3310075,141.5280592
遠野城下町資料館,日本、〒028-0523 岩手県遠野市中央通り４−６,39.3304885,141.5289838
遠野市立博物館・図書館,日本、〒028-0515 岩手県遠野市東舘町３−９,39.3278919,141.528722
日本現代詩歌文学館,日本、〒024-0093 岩手県北上市本石町２丁目５−６０,39.2928158,141.114765
花巻歴史民俗資料館,日本、〒025-0037 岩手県花巻市太田3−85−１,39.3871234,141.0211865
碧祥寺博物館,日本、〒029-5614 岩手県和賀郡西和賀町沢内太田３地割３２,39.427353,140.748102
みちのく民俗村,日本、〒024-0043 岩手県北上市立花１４地割62−３,39.270302,141.1296694
三船十段記念館,日本、〒028-0082 岩手県久慈市川貫第５地割２０−２３０,40.1880043,141.7587258
盛岡市遺跡の学び館,日本、〒020-0866 岩手県盛岡市本宮荒屋１３−１,39.692081,141.128528
秋田県,日本、秋田県,40.1376293,140.334341
秋田市立赤れんが郷土館,日本、〒010-0921 秋田県秋田市大町３丁目３−２１,39.7167082,140.1157849
秋田市立佐竹史料館,日本、〒010-0876 秋田県秋田市千秋公園１−４,39.719978,140.124801
秋田大学附属鉱業博物館,日本、〒010-0851 秋田県秋田市手形大沢２８−２,39.7291973,140.1366088
小坂町総合博物館郷土館,日本、〒017-0201 秋田県鹿角郡小坂町小坂字中前田４８−１,40.3236735,140.7405751
秋田市立佐竹史料館,日本、〒010-0876 秋田県秋田市千秋公園１−４,39.719978,140.124801
白瀬南極探検隊記念館,日本、〒018-0302 秋田県にかほ市黒川岩潟１５−３,39.2680573,139.9253706
田沢湖郷土史料館,日本、〒014-1204 秋田県仙北市田沢湖田沢春山１９７,39.7347929,140.6983198
仁別森林博物館,日本、〒010-0824 秋田県秋田市仁別字務沢国有林２２ 務沢国有林２２,39.8032915,140.262633
秋田県立農業科学館,日本、〒014-0073 秋田県大仙市内小友中沢１７１−４,39.4369353,140.4390272
ノースアジア大学雪国民俗館,日本、〒010-0058 秋田県秋田市下北手桜守沢４６−１,39.716466,140.1581064
秋田県立博物館,日本、〒010-0124 秋田県秋田市金足鳰崎後山５２,39.8173963,140.0662231
フェライト子ども科学館,日本、〒018-0402 秋田県にかほ市平沢宝田４−１,39.2848653,139.9609241
秋田犬会館,日本、〒017-0897 秋田県大館市三ノ丸１３−１,40.273208,140.56406
宮城県,日本、宮城県,38.630612,141.1193048
石ノ森萬画館,日本、〒986-0823 宮城県石巻市中瀬２−７,38.4295764,141.3107607
大崎市三本木亜炭記念館,日本、〒989-6321 宮城県大崎市三本木大豆坂６３−２４,38.521669,140.938337
大崎市松山酒ミュージアム,日本、〒987-1304 宮城県大崎市松山千石松山２４２,38.5116741,141.0519287
大崎市松山ふるさと歴史館,日本、〒987-1304 宮城県大崎市松山千石松山４２８,38.5118402,141.0515848
カメイ美術館,日本、〒980-0022 宮城県仙台市青葉区五橋１丁目１−２３ カメイ五橋ビル,38.2547272,140.8812636
感覚ミュージアム,日本、〒989-6434 宮城県大崎市岩出山下川原町１００,38.6567743,140.8704616
魚竜館,,,
気仙沼市大谷鉱山歴史資料館,日本、〒988-0278 宮城県気仙沼市本吉町高瀬ヶ森５８−１６,38.814719,141.527402
仙台市科学館,日本、〒981-0903 宮城県仙台市青葉区台原森林公園４−１ 仙台市科学館,38.2989916,140.8832544
仙台市戦災復興記念館,日本、〒980-0804 宮城県仙台市青葉区大町２丁目１２−１,38.26085,140.8670467
仙台市博物館,日本、〒980-0862 宮城県仙台市青葉区川内２６,38.2559848,140.8566931
仙台文学館,日本、〒981-0902 宮城県仙台市青葉区北根２丁目７−１,38.2964954,140.8762244
地底の森ミュージアム,日本、〒982-0012 宮城県仙台市太白区長町南４丁目３−１,38.2231294,140.8725944
東北歴史博物館,日本、〒985-0862 宮城県多賀城市高崎１丁目２２−１,38.3000183,140.9945562
東北大学総合学術博物館,日本、〒980-0845 宮城県仙台市青葉区荒巻青葉６−３,38.257832,140.8373774
日本こけし館,日本、〒989-6827 宮城県大崎市鳴子温泉尿前７４−２,38.736259,140.697525
ベルギーオルゲールミュージアム,日本、〒981-0213 宮城県宮城郡松島町松島普賢堂33 3,38.3721394,141.0665983
七夕ミュージアム,日本、〒984-0001 宮城県仙台市若林区鶴代町６−６５,38.2574324,140.9560112
山形県,日本、山形県,38.5370564,140.1435198
斎藤茂吉記念館,日本、〒999-3131 山形県上山市北町弁天１４２１,38.1720641,140.2992694
致道博物館,日本、〒997-0036 山形県鶴岡市家中新町１０−１８,38.728401,139.8214209
鶴岡市立藤沢周平記念館,日本、〒997-0035 山形県鶴岡市馬場町４−６,38.727794,139.824989
天童オルゴール博物館,,,
文翔館,日本、〒990-0047 山形県山形市旅篭町３丁目４−５１,38.256637,140.3411866
紅花資料館,日本、〒999-3511 山形県西村山郡河北町谷地戊１１４３,38.438528,140.299762
まほろば・童話の里 浜田広介記念館,日本、〒992-0334 山形県東置賜郡高畠町一本柳２１１０,38.0056594,140.1624661
宮坂考古館,日本、〒992-0026 山形県米沢市東１丁目２−２４,37.9056094,140.126994
最上義光歴史館,日本、〒990-0046 山形県山形市大手町１−５３,38.2550943,140.3334358
山形県立博物館,日本、〒990-0826 山形県山形市霞城町１−８,38.2545075,140.3294875
山形市産業歴史資料館,日本、〒990-2351 山形県山形市鋳物町１０,38.2305651,140.289513
山寺芭蕉記念館,日本、〒999-3301 山形県山形市山寺４２２３,38.3095478,140.4389925
米沢市上杉博物館,日本、〒992-0052 山形県米沢市丸の内１丁目２−１,37.9077288,140.1067915
清河八郎記念館,日本、〒999-6606 山形県東田川郡庄内町清川上川原３７,38.7848,140.025094
福島県,日本、福島県,37.3834373,140.1832516
会津新選組記念館,日本、〒965-0044 福島県会津若松市七日町６−７,37.500555,139.921304
会津藩校日新館,日本、〒969-3441 福島県会津若松市河東町南高野高塚山１０,37.5588569,139.9444977
アウシュヴィッツ平和博物館,日本、〒961-0835 福島県白河市白坂三輪台２４５,37.095732,140.188448
安積歴史博物館,日本、〒963-8851 福島県郡山市開成５丁目２５−６３,37.3917263,140.3506121
いわき市暮らしの伝承郷,日本、〒971-8132 福島県いわき市鹿島町下矢田散野14ｰ16,37.0084221,140.9149238
いわき市考古資料館,日本、〒972-8326 福島県いわき市常磐藤原町手這５０−１,36.996871,140.825399
いわき市石炭・化石館,日本、〒972-8321 福島県いわき市常磐湯本町向田３−１,37.0126168,140.8484916
いわき市立草野心平記念文学館,日本、〒979-3122 福島県いわき市小川町高萩下タ道１−３９,37.12907,140.833277
奥会津博物館,日本、〒967-0014 福島県南会津郡南会津町糸沢西沢山３６９２−２０,37.146078,139.720143
郡山市開成館,日本、〒963-8851 福島県郡山市開成３丁目３−７ 開成館,37.3957605,140.3525788
郡山市ふれあい科学館,日本、〒963-8002 福島県郡山市駅前２丁目１１−１ ビッグアイ 20～24階,37.3999624,140.3882907
郡山市歴史資料館,日本、〒963-8876 福島県郡山市麓山１丁目８−３ 郡山市歴史資料館,37.3945868,140.3730114
こおりやま文学の森資料館,日本、〒963-8016 福島県郡山市豊田町３−５ こおりやま文学の森郡山市文学資料館,37.3959814,140.3631897
事故の歴史展示館,,,
須賀川市立博物館,日本、〒962-0843 福島県須賀川市池上町６,37.291424,140.37921
ただみ・モノとくらしのミュージアム,日本、〒968-0602 福島県南会津郡只見町大倉窪田３０,37.310111,139.4446444
富岡町文化交流センター学びの森,日本、〒979-1151 福島県双葉郡富岡町本岡王塚６２２−１,37.3470002,141.0092402
中山義秀記念文学館,日本、〒969-0309 福島県白河市大信町屋沢田２５,37.202929,140.247362
野口英世記念館,日本、〒969-3284 福島県耶麻郡猪苗代町三ツ和前田81,37.5361755,140.0736453
磐梯山噴火記念館,日本、〒969-2701 福島県耶麻郡北塩原村檜原剣ケ峯１０９３−３６,37.6596722,140.0794528
東日本大震災・原子力災害伝承館,日本、〒979-1401 福島県双葉郡双葉町中野高田39,37.4577624,141.026386
白虎隊伝承史学館,日本、〒965-0003 福島県会津若松市一箕町大字八幡弁天下２−２,37.5051096,139.9523199
白虎隊記念館,日本、〒965-0003 福島県会津若松市一箕町大字八幡弁天下３３,37.504516,139.953268
福島県立博物館,日本、〒965-0807 福島県会津若松市城東町１−２５,37.4887526,139.9346693
福島市飯野UFOふれあい館,日本、〒960-1303 福島県福島市飯野町青木小手神森１−２９９ 千貫森公園,37.6874504,140.5342255
南相馬市博物館,日本、〒975-0051 福島県南相馬市原町区牛来出口１９４,37.6231883,140.963067
関東,日本、関東地方,36.4598667,139.6911374
茨城県,日本、茨城県,36.2193571,140.1832516
古河歴史博物館,日本、〒306-0033 茨城県古河市中央町３丁目１０−５６,36.1909885,139.7011082
土浦市立博物館,日本、〒300-0043 茨城県土浦市中央１丁目１５−１８,36.085224,140.1972
ミュージアムパーク茨城県自然博物館,日本、〒306-0622 茨城県坂東市大崎７００,36.0049307,139.9162694
栃木県,日本、栃木県,36.6714739,139.8547266
小山市立博物館,日本、〒329-0214 栃木県小山市乙女１丁目３１−７,36.2614351,139.7555299
佐野市郷土博物館,日本、〒327-0003 栃木県佐野市大橋町２０４７,36.312874,139.564953
栃木県立博物館,日本、〒320-0865 栃木県宇都宮市睦町２−２,36.5594616,139.8604859
道の駅那須野が原博物館,"1番地 ５丁目, ５丁目 三島 那須塩原市 栃木県 329-2752 日本",36.8996399,139.9690209
壬生町おもちゃ博物館,日本、〒321-0211 栃木県下都賀郡壬生町国谷2273−２３００,36.4620954,139.8083001
栃木県立日光自然博物館,日本、〒321-1661 栃木県日光市中宮祠２４８０−１,36.7386936,139.5000482
大麻博物館,日本、〒325-0303 栃木県那須郡那須町高久１−５,37.0214455,140.0287842
群馬県,日本、群馬県,36.5605388,138.8799972
群馬県立自然史博物館,日本、〒370-2345 群馬県富岡市上黒岩１６７４−１,36.2698979,138.8669273
群馬県立歴史博物館,日本、〒370-1207 群馬県高崎市綿貫町９９２−１,36.2984468,139.0792432
埼玉県,日本、埼玉県,35.9962513,139.4466005
埼玉県立歴史と民俗の博物館,日本、〒330-0803 埼玉県さいたま市大宮区高鼻町４丁目２１９,35.9212089,139.6298005
埼玉県立さきたま史跡の博物館,日本、〒361-0025 埼玉県行田市埼玉４８３４,36.1251443,139.4757033
埼玉県立嵐山史跡の博物館,日本、〒355-0221 埼玉県比企郡嵐山町菅谷７５７,36.0369192,139.3233672
埼玉県立近代美術館,日本、〒330-0061 埼玉県さいたま市浦和区常盤９丁目３０−１,35.8697281,139.6431734
埼玉県立自然の博物館,日本、〒369-1305 埼玉県秩父郡長瀞町長瀞１４１７−１,36.0875,139.1161111
埼玉県立川の博物館,日本、〒369-1217 埼玉県大里郡寄居町小園３９,36.1156935,139.2196059
渋沢栄一記念館,日本、〒366-0002 埼玉県深谷市下手計１２０４,36.234096,139.2638754
角川武蔵野ミュージアム,日本、〒359-0023 埼玉県所沢市東所沢和田３丁目３１−３ ところざわサクラタウン,35.7977186,139.5078028
千葉県,日本、千葉県,35.3354155,140.1832516
我孫子市鳥の博物館,日本、〒270-1145 千葉県我孫子市高野山２３４−３,35.8612961,140.0306467
浦安市郷土博物館,日本、〒279-0004 千葉県浦安市猫実１丁目２−７ 浦安市郷土博物館,35.6552391,139.9010925
九十九里いわし博物館,日本、〒283-0104 千葉県山武郡九十九里町片貝２９８３,35.5357049,140.4408144
航空科学博物館,日本、〒289-1608 千葉県山武郡芝山町岩山１１１−３,35.7403564,140.3977966
国立歴史民俗博物館,日本、〒285-0017 千葉県佐倉市城内町１１７,35.7243611,140.2191306
芝山古墳・はにわ博物館,日本、〒289-1619 千葉県山武郡芝山町芝山４３８−１,35.694,140.428514
千葉県立関宿城博物館,日本、〒270-0201 千葉県野田市関宿三軒家１４３−４ 千葉県立関宿城博物館,36.1005375,139.7825917
千葉県立中央博物館,日本、〒260-0852 千葉県千葉市中央区青葉町９５５−２,35.5998298,140.1384005
流山市立博物館,日本、〒270-0176 千葉県流山市加１丁目１２２５−６,35.8586365,139.9023832
野田市郷土博物館,日本、〒278-0037 千葉県野田市野田３７０−８ 野田市郷土博物館,35.9453469,139.8654482
松戸市立博物館,日本、〒270-2252 千葉県松戸市千駄堀６７１,35.8008972,139.9394704
戸定邸,日本、〒271-0092 千葉県松戸市松戸642番1,35.7776503,139.898927
鈴木貫太郎記念館,日本、〒270-0206 千葉県野田市関宿町１２７３,36.0911801,139.7858187
館山市立博物館,日本、〒294-0036 千葉県館山市館山３５１−２,34.9824345,139.8544468
八犬伝博物館,日本、〒294-0036 千葉県館山市館山３６２,34.9814557,139.8557988
東京都,日本、東京都,35.6761919,139.6503106
北区飛鳥山博物館,日本、〒114-0002 東京都北区王子１丁目１−３,35.7495899,139.7389375
白根記念渋谷区郷土博物館・文学館,日本、〒150-0011 東京都渋谷区東４丁目９−１ 白根記念渋谷区郷土博物館・文学館,35.6564347,139.7125067
杉並区立郷土博物館,日本、〒168-0061 東京都杉並区大宮１丁目２０−８ 杉並区立郷土博物館,35.6859169,139.6454468
東京国立博物館,日本、〒110-8712 東京都台東区上野公園１３−９,35.7188351,139.7765215
東京都江戸東京博物館,日本、〒130-0015 東京都墨田区横網１丁目４−１,35.6965972,139.7957336
東京都近代文学博物館,,,
国立科学博物館,日本、〒110-8718 東京都台東区上野公園７−２０,35.7163059,139.7765252
土方歳三資料館,日本、〒191-0021 東京都日野市石田２丁目１−３,35.6697658,139.4196267
井上源三郎資料館,日本、〒191-0011 東京都日野市日野本町４丁目１１−１２,35.6802246,139.3972492
佐藤彦五郎新選組資料館,日本、〒191-0011 東京都日野市日野本町２丁目１５−５,35.6773947,139.3998461
日野市立新選組のふるさと歴史館,日本、〒191-0016 東京都日野市神明４丁目１６−１ 新選組のふるさと歴史館,35.6734179,139.3965305
小島資料館,日本、〒195-0064 東京都町田市小野路町９５０ 小島資料館,35.5989642,139.4386001
神奈川県,日本、神奈川県,35.4913535,139.284143
神奈川県立生命の星・地球博物館,日本、〒250-0031 神奈川県小田原市入生田４９９,35.2394963,139.121663
藤子・F・不二雄ミュージアム,日本、〒214-0023 神奈川県川崎市多摩区長尾２丁目８−１,35.6099229,139.5735722
横須賀市自然・人文博物館,日本、〒238-0016 神奈川県横須賀市深田台９５−９５ 横須賀市立自然・人文博物館,35.2745404,139.6736259
川崎市市民ミュージアム,日本、〒211-0052 神奈川県川崎市中原区等々力１−２,35.5887214,139.647451
相模原市立博物館,日本、〒252-0221 神奈川県相模原市中央区高根３丁目１−１５ 相模原市立博物館,35.5593639,139.3930267
中部,,,
新潟県,日本、新潟県,37.5178386,138.9269794
新潟県立自然科学館,日本、〒950-0948 新潟県新潟市中央区女池南３丁目１−１,37.890746,139.049752
新潟県立歴史博物館,日本、〒940-2035 新潟県長岡市関原町１丁目２２４７−２ 字権現堂２２４７ｰ２,37.4383931,138.7673549
長岡戦災資料館,日本、〒940-0061 新潟県長岡市城内町２丁目６−１７,37.448667,138.8524042
新潟市歴史博物館,日本、〒951-8013 新潟県新潟市中央区柳島町２丁目１０,37.9298232,139.0577486
新潟市新津鉄道資料館,日本、〒956-0816 新潟県新潟市秋葉区新津東町２丁目５−６,37.8018364,139.1418232
燕市産業史料館,日本、〒959-1263 新潟県燕市大曲４３３０−１,37.652754,138.919169
三条市歴史民俗産業資料館,日本、〒955-0071 新潟県三条市本町３丁目１−４,37.632021,138.95674
上越市立歴史博物館,日本、〒943-0835 新潟県上越市本城町７−７,37.1116918,138.25519
フォッサマグナミュージアム,日本、〒941-0056 新潟県糸魚川市一ノ宮１３１３,37.0256333,137.8705708
田中角栄記念館,日本、〒949-4135 新潟県柏崎市西山町坂田７１７−４,37.4499215,138.6614563
富山県,日本、富山県,36.6958266,137.2137071
高志の国文学館,日本、〒930-0095 富山県富山市舟橋南町２−２２,36.6954577,137.2061956
富山県立山（たてやま）博物館,日本、〒930-1406 富山県中新川郡立山町芦峅寺６,36.5813185,137.3978742
富山市科学博物館,日本、〒939-8084 富山県富山市西中野町１丁目８−３１,36.6808542,137.2118146
富山市郷土博物館,日本、〒930-0081 富山県富山市本丸１−６２,36.6928096,137.2114892
高岡市立博物館,日本、〒933-0044 富山県高岡市古城１−５,36.7465731,137.0208647
魚津埋没林博物館,日本、〒937-0067 富山県魚津市釈迦堂８１４,36.8224611,137.39501
ほたるいかミュージアム,日本、〒936-0021 富山県滑川市中川原４１０,36.7740842,137.3444938
石川県,日本、石川県,36.3260317,136.5289653
石川県立歴史博物館,日本、〒920-0963 石川県金沢市出羽町３−１,36.5585695,136.6628441
福井県,日本、福井県,35.896227,136.2111579
福井県立恐竜博物館,日本、〒911-0023 福井県勝山市村岡町寺尾５１−１１,36.0827204,136.5065353
福井市立郷土歴史博物館,日本、〒910-0004 福井県福井市宝永３丁目１２−１ 福井市立郷土歴史博物館,36.0682507,136.2230028
山梨県,日本、山梨県,35.6635113,138.6388879
山梨県立博物館,日本、〒406-0801 山梨県笛吹市御坂町成田１５０１−１,35.6402901,138.6486098
長野県,日本、長野県,36.1543941,137.9218204
長野県立歴史館,日本、〒387-0007 長野県千曲市屋代２６０−６,36.5342695,138.1352479
岐阜県,日本、岐阜県,35.7437491,136.9805103
岐阜県博物館,日本、〒501-3941 岐阜県関市小屋名１９８９ 岐阜県博物館,35.4781437,136.8690541
岐阜女子大学デジタルミュージアム,,,
静岡県,日本、静岡県,35.0929397,138.3190276
ふじのくに地球環境史ミュージアム,日本、〒422-8017 静岡県静岡市駿河区大谷５７６２,34.9590972,138.436415
浜松市博物館,日本、〒432-8018 静岡県浜松市中区蜆塚４丁目２２−１,34.7126119,137.703917
奇石博物館,日本、〒418-0111 静岡県富士宮市山宮３６７０,35.2820131,138.6399096
愛知県,日本、愛知県,35.0182505,137.2923893
名古屋市博物館,日本、〒467-0806 愛知県名古屋市瑞穂区瑞穂通１丁目２７−１,35.13633,136.9349232
岡崎市美術博物館,日本、〒444-0002 愛知県岡崎市高隆寺町峠１,34.947729,137.2175055
豊橋市美術博物館,日本、〒440-0801 愛知県豊橋市今橋町３−１,34.7692262,137.3948299
蒲郡市博物館,日本、〒443-0035 愛知県蒲郡市栄町１０−２２,34.8223942,137.2193028
春日井市立郷土館,日本、〒486-0844 愛知県春日井市鳥居松町７丁目５,35.2481204,136.9782837
三重県,日本、三重県,33.8143901,136.0487047
三重県総合博物館,日本、〒514-0061 三重県津市一身田上津部田３０６０ 三重県総合博物館,34.7422915,136.5016849
斎宮歴史博物館,日本、〒515-0325 三重県多気郡明和町竹川５０３,34.5427544,136.6097025
伊賀流忍者博物館,日本、〒518-0873 三重県伊賀市上野丸之内１１７,34.771836,136.129113
鳥羽市立海の博物館,日本、〒517-0025 三重県鳥羽市浦村町 大吉１７３１−６８,34.4492668,136.8994237
貨物鉄道博物館,日本、〒511-0262 三重県いなべ市大安町丹生川中１１７０,35.1234503,136.5189598
皇學館大学佐川記念神道博物館,日本、〒516-0014 三重県伊勢市神田久志本町１７０４,34.4841223,136.7259035
近畿,日本、関西地方,34.6413394,135.562902
滋賀県,日本、滋賀県,35.3292014,136.0563212
彦根城博物館,日本、〒522-0061 滋賀県彦根市金亀町１−１,35.2752143,136.253412
京都府,日本、京都府,35.1566609,135.5251982
京都国立博物館,日本、〒605-0931 京都府京都市東山区茶屋町５２７,34.9899887,135.773116
大阪府,日本、大阪府,34.6413315,135.5629394
国立民族学博物館,日本、〒565-0826 大阪府吹田市千里万博公園１０−１,34.8128311,135.5302466
奈良県,日本、奈良県,34.2975528,135.8279734
奈良国立博物館,日本、〒630-8212 奈良県奈良市登大路町５０,34.6831318,135.8383055
和歌山県,日本、和歌山県,33.9480914,135.3745358
和歌山県立紀伊風土記の丘,日本、〒640-8301 和歌山県和歌山市岩橋１４１１ 和歌山県立 紀伊風土記の丘,34.2278861,135.229593
兵庫県,日本、兵庫県,34.8579518,134.5453787
神戸市立博物館,日本、〒650-0034 兵庫県神戸市中央区京町２４,34.6872567,135.1931834
中国,中華人民共和国,35.86166,104.195397
岡山県,日本、岡山県,34.8963407,133.6375314
井笠鉄道記念館,日本、〒714-0007 岡山県笠岡市山口１４５７−８,34.5691173,133.5259186
犬養木堂記念館,日本、〒701-0161 岡山県岡山市北区川入１０２−１,34.652138,133.842801
岡山県立博物館,日本、〒703-8257 岡山県岡山市北区後楽園１−５,34.668659,133.933747
岡山シティミュージアム,日本、〒700-0024 岡山県岡山市北区駅元町１５−１,34.6663661,133.9158981
岡山天文博物館,日本、〒719-0232 岡山県浅口市鴨方町本庄３０３７−５,34.5763846,133.5954222
海遊文化館,日本、〒701-4302 岡山県瀬戸内市牛窓町牛窓３０５６,34.6159087,134.1639978
笠岡市立カブトガニ博物館,日本、〒714-0043 岡山県笠岡市横島１９４６−２,34.4774561,133.5215739
倉敷アイビースクエア,日本、〒710-0054 岡山県倉敷市本町７−２,34.5946767,133.7740623
倉敷市立自然史博物館,日本、〒710-0046 岡山県倉敷市中央２丁目６−１,34.5954325,133.768628
倉敷民藝館,日本、〒710-0046 岡山県倉敷市中央１丁目４−１１,34.5955041,133.7715894
現代医学教育博物館,日本、〒701-0114 岡山県倉敷市松島５７７,34.6333718,133.8114566
現代玩具博物館,日本、〒707-0062 岡山県美作市湯郷 319番地2,34.9937567,134.1372721
児島市民交流センター,日本、〒711-0913 岡山県倉敷市児島味野２丁目２−３８,34.4682776,133.8035742
高梁市成羽美術館,日本、〒716-0111 岡山県高梁市成羽町下原１０６８−３,34.7806679,133.5366416
玉野市立海洋博物館,日本、〒706-0028 岡山県玉野市渋川２丁目６−１,34.4548984,133.9054393
玉野市立玉野海洋博物館,日本、〒706-0028 岡山県玉野市渋川２丁目６−１,34.4548984,133.9054393
津山洋学資料館,日本、〒708-0831 岡山県津山市西新町５,35.0636728,134.0162231
なぎビカリアミュージアム,日本、〒708-1312 岡山県勝田郡奈義町柿１８７５,35.101046,134.187233
美星天文台,日本、〒714-1411 岡山県井原市美星町大倉１７２３−７０,34.6719762,133.5453847
備前長船刀剣博物館,日本、〒701-4271 岡山県瀬戸内市長船町長船９６６,34.7216189,134.1069109
備前市歴史民俗資料館,日本、〒705-0022 岡山県備前市東片上３８５,34.7469399,134.1937457
ベンガラ館,日本、〒719-2342 岡山県高梁市成羽町吹屋,34.8532936,133.468593
武蔵資料館,日本、〒707-0415 岡山県美作市宮本９４,35.0951744,134.3261433
和気町歴史民俗資料館,日本、〒709-0412 岡山県和気郡和気町藤野１３８６−２,34.819364,134.175429
広島県,日本、広島県,34.8823408,133.0194897
安芸高田市歴史民俗資料館,日本、〒731-0501 広島県安芸高田市吉田町吉田２７８−１,34.6705669,132.7014433
入船山記念館,日本、〒737-0028 広島県呉市幸町４−６ 呉市入船山記念館,34.2404232,132.5639173
いろは丸展示館,日本、〒720-0201 広島県福山市鞆町鞆８４３−１,34.3826353,133.3808341
因島史料館,日本、〒722-2211 広島県尾道市因島中庄町３２２２,34.3270575,133.1665423
江戸みなとまち展示館,日本、〒734-0302 広島県呉市豊町御手洗,34.1798819,132.8672707
大久野島毒ガス資料館,日本、〒729-2311 広島県竹原市忠海町５４９１,34.3059237,132.9941183
大崎上島町 ふれあい郷土資料館,日本、〒725-0402 広島県豊田郡大崎上島町沖浦１９１１,34.2157383,132.9169017
太田家住宅,日本、〒720-0201 広島県福山市鞆町鞆８４２,34.3829346,133.3808511
おのみち映画資料館,日本、〒722-0045 広島県尾道市久保１丁目１４−１０,34.4095764,133.205246
おのみち文学の館,日本、〒722-0033 広島県尾道市東土堂町１３−２８,34.409428,133.1994
おのみち歴史博物館,日本、〒722-0045 広島県尾道市久保１丁目１４−１,34.409767,133.204869
海上自衛隊呉史料館,日本、〒737-0029 広島県呉市宝町５−３２,34.24215,132.5552644
神辺歴史民俗資料館,日本、〒720-2123 広島県福山市神辺町川北７００６−１,34.5373027,133.3869851
旧木原家住宅,日本、〒739-2114 広島県東広島市高屋町白市１０４６−１,34.4562931,132.8235075
久井歴史民俗資料館,日本、〒722-1303 広島県三原市久井町下津１３９７,34.536202,133.036071
口和郷土資料館,日本、〒727-0114 広島県庄原市口和町永田９,34.893804,132.926998
熊野町郷土館,日本、〒731-4214 広島県安芸郡熊野町中溝３丁目１２−２６,34.337975,132.582982
呉市海事歴史科学館,日本、〒737-0029 広島県呉市宝町５−２０,34.2411391,132.5558555
呉市立 倉橋歴史民俗資料館,日本、〒737-1377 広島県呉市倉橋町４４０,34.1021419,132.5128448
呉市歴史民俗資料館,日本、〒737-0028 広島県呉市幸町４,34.2406185,132.5641917
健康科学館,日本、〒730-0052 広島県広島市中区千田町３丁目８,34.3763987,132.4575526
古代製塩遺跡復元展示館,日本、〒737-0402 広島県呉市蒲刈町大浦７６４６−３,34.1643321,132.7457739
佐伯歴史民俗資料館,日本、〒738-0205 広島県廿日市市玖島４３６８,34.3913073,132.2454224
シュモーハウス,日本、〒730-0834 広島県広島市中区江波二本松１丁目２−４３,34.3700787,132.4326447
庄原市 口和郷土資料館,日本、〒727-0114 広島県庄原市口和町永田９,34.893804,132.926998
しんいち歴史民俗博物館,日本、〒729-3103 広島県福山市新市町新市９１６,34.558046,133.275696
世羅郷土民俗資料館,日本、広島県世羅郡世羅町,34.5868067,133.0566521
戦国の庭歴史館,日本、〒731-1703 広島県山県郡北広島町町北 広島町海応寺２５５−１,34.717278,132.4653233
竹原市歴史民俗資料館,日本、〒725-0022 広島県竹原市本町３丁目１１−１６,34.3475452,132.9100848
千代田歴史民俗資料館,日本、東京都千代田区,35.6940309,139.7537719
鞆の浦歴史民俗資料館,日本、〒720-0202 広島県福山市鞆町後地５３６−１,34.3842612,133.381799
似島平和資料館,日本、〒734-0017 広島県広島市南区似島町２２２４−１２,34.302439,132.4394109
日本郷土玩具博物館,日本,36.204824,138.252924
日本はきもの博物館,日本、〒729-0104 広島県福山市松永町４丁目１６−２７,34.4506493,133.2600752
土師民俗資料館,日本、〒731-0301 広島県安芸高田市八千代町土師,34.6578587,132.6088031
八本松歴史民俗資料館,日本、〒739-0144 広島県東広島市八本松南２丁目１−２,34.4394362,132.6933402
ハワイ移民資料館　仁保島村,日本、〒734-0026 広島県広島市南区仁保３丁目１７−６,34.3680419,132.4970589
広島県立歴史博物館,日本、〒720-0067 広島県福山市西町２丁目４−１,34.4896757,133.3589429
広島県立歴史民俗資料館,日本、〒729-6216 広島県三次市小田幸町１２２,34.7633928,132.8972017
広島市江波山気象館,日本、〒730-0835 広島県広島市中区江波南１丁目４０−１,34.3661941,132.4350382
広島市郷土資料館,日本、〒734-0015 広島県広島市南区宇品御幸２丁目６−２０,34.365992,132.4618511
広島市交通科学館,日本、〒731-0143 広島県広島市安佐南区長楽寺２丁目１２−２,34.470826,132.4285645
広島市こども文化科学館,日本、〒730-0011 広島県広島市中区基町５−８３,34.3985603,132.4537796
広島市水道資料館,日本、〒732-0068 広島県広島市東区牛田新町１丁目８−１ 広島市水道資料館,34.417599,132.4671987
広島大学総合博物館,日本、〒739-0046 広島県東広島市鏡山１丁目１−１,34.4030199,132.7105288
広島逓信病院旧外来棟被爆資料室,日本、〒730-0004 広島県広島市中区東白島町１９,34.4034705,132.4651478
広島平和記念資料館,日本、〒730-0811 広島県広島市中区中島町１−２,34.3915027,132.4531578
福山市神辺歴史民俗資料館,日本、〒720-2123 広島県福山市神辺町川北７００６−１,34.5373027,133.3869851
福山市人権平和資料館,日本、〒720-0061 広島県福山市丸之内１丁目９−１−１,34.492921,133.358599
福山自動車時計博物館,日本、〒720-0073 広島県福山市北吉津町３丁目１−２２,34.4977552,133.3630682
ふくやま文学館,日本、〒720-0061 広島県福山市丸之内１丁目９−９,34.4924761,133.358418
府中家具木工資料館,日本、〒726-0012 広島県府中市中須町１６５０−１,34.5626979,133.2637321
府中市上下歴史文化資料館,日本、〒729-3431 広島県府中市上下町上下１００６,34.6950631,133.1208656
府中市歴史民俗資料館,日本、〒726-0021 広島県府中市土生町８８２−２,34.562241,133.229768
府中町歴史民俗資料館,日本、〒735-0006 広島県安芸郡府中町本町２丁目１５−１,34.3958093,132.5081447
筆の里工房,日本、〒731-4214 広島県安芸郡熊野町中溝５丁目１７−１,34.3427711,132.5753483
ホロコースト記念館,日本、〒720-0004 広島県福山市御幸町中津原８１５,34.5208565,133.3576604
マツダミュージアム,日本、〒735-0028 広島県安芸郡府中町新地３−３番１号,34.377808,132.5038756
三永歴史民俗資料館,"日本、〒739-0023 広島県東広島市西条町34, 下三永 10929番地−１",34.3949735,132.7773502
三原市歴史民俗資料館,日本、〒723-0015 広島県三原市円一町２丁目３−２,34.394806,133.078019
宮島歴史民俗資料館,日本、〒739-0533 広島県廿日市市宮島町５７,34.2951351,132.3175497
三次市歴史民俗資料館・辻村寿三郎人形館,日本、〒728-0021 広島県三次市三次町１２３６,34.8109854,132.8479872
三次もののけミュージアム,日本、〒728-0021 広島県三次市三次町１６９１−４,34.8153403,132.8452053
三和町郷土資料館,日本、〒729-6702 広島県三次市三和町敷名１４９６,34.6606402,132.8461667
木炭自動車とレトロ車館,日本、〒731-3501 広島県山県郡安芸太田町加計３４２６,34.6106421,132.3225954
基町資料室,日本、〒730-0011 広島県広島市中区基町１８−４−１ 分散店舗208号,34.4033976,132.4551686
安浦歴史民俗資料館（南薫造記念館）,日本、〒737-2519 広島県呉市安浦町内海南２丁目１３−１０ 安浦歴史民俗資料館,34.280608,132.736814
吉和歴史民俗資料館,日本、〒738-0301 広島県廿日市市吉和３５２３−１,34.4880562,132.1417911
頼山陽史跡資料館,日本、〒730-0036 広島県広島市中区袋町５−１５,34.3914913,132.4572451
早稲田神社郷土資料館,日本、〒732-0062 広島県広島市東区牛田早稲田１丁目２−２２,34.413779,132.4763023
鳥取,日本、鳥取県,35.3573161,133.4066618
青山剛昌ふるさと館,日本、〒689-2221 鳥取県東伯郡北栄町由良宿１４１４,35.498032,133.7618098
石谷家住宅,日本、〒689-1402 鳥取県八頭郡智頭町智頭３９６,35.270169,134.230267
因幡万葉歴史館,日本、〒680-0146 鳥取県鳥取市国府町町屋７２６ 因幡万葉歴史館,35.472811,134.274736
海とくらしの史料館,日本、〒684-0016 鳥取県境港市花町８−１,35.547066,133.241847
かにっこ館,日本、〒680-0908 鳥取県鳥取市賀露町西３丁目２７−２,35.534477,134.17879
上淀白鳳の丘展示館,日本、〒689-3411 鳥取県米子市淀江町福岡９７７−２,35.4536594,133.4429813
倉吉線鉄道記念館,日本、〒682-0887 鳥取県倉吉市明治町１０１２−７,35.4341912,133.8248203
倉吉博物館・倉吉歴史民俗資料館,日本、〒682-0824 鳥取県倉吉市仲ノ町３４４５−８,35.4290462,133.825379
山陰海岸ジオパーク海と大地の自然館,日本、〒681-0001 鳥取県岩美郡岩美町牧谷１７９４−４,35.5934645,134.3395073
山陰歴史館,日本、〒683-0822 鳥取県米子市中町２０,35.429241,133.330342
陣所の館,日本、〒682-0123 鳥取県東伯郡三朝町三朝９１０−４,35.4104267,133.8930259
鳥取県立博物館,日本、〒680-0011 鳥取県鳥取市東町２丁目１２４ 鳥取県立博物館,35.5083391,134.2361258
鳥取県立氷ノ山自然ふれあい館響の森,日本、〒680-0728 鳥取県八頭郡若桜町舂米 つく米635-175 氷ノ山自然ふれあい館響の森,35.3576303,134.4910358
鳥取市歴史博物館,日本、〒680-0015 鳥取県鳥取市上町８８,35.498958,134.243938
鳥取二十世紀梨記念館,日本、〒682-0816 鳥取県倉吉市駄経寺町１９８−４,35.4312712,133.8354156
西河克己映画記念館,日本、〒689-1402 鳥取県八頭郡智頭町智頭５４０−１１,35.2696987,134.2292999
若桜郷土文化の里,日本、〒680-0721 鳥取県八頭郡若桜町屋堂羅３１,35.345916,134.403425
わらべ館,日本、〒680-0022 鳥取県鳥取市西町３丁目２０２,35.5043355,134.2334186
島根県,日本、島根県,35.1244094,132.6293446
出雲科学館,日本、〒693-0001 島根県出雲市今市町１９００−２,35.362087,132.7658833
小泉八雲記念館,日本、〒690-0872 島根県松江市奥谷町３２２,35.479204,133.049123
小泉八雲旧居,日本、〒690-0888 島根県松江市北堀町３１５ 小泉八雲旧居,35.4792232,133.0494395
島根県立古代出雲歴史博物館,日本、〒699-0701 島根県出雲市大社町杵築東９９−４,35.3988089,132.6887368
島根県立三瓶自然館,日本、〒694-0003 島根県大田市三瓶町多根１１２１−８,35.1527714,132.6208631
島根県立しまね海洋館,日本、〒697-0004 島根県浜田市久代町１１１７−２ 島根県立しまね海洋館 アクアス,34.9594578,132.1446342
島根大学旧奥谷宿舎,日本、〒690-0872 島根県松江市奥谷町１４０,35.4811597,133.0537429
竹島資料室,日本、〒690-0887 島根県松江市殿町１ 島根県庁第三分庁舎 ２階,35.4711335,133.0516412
中村元記念館,日本、〒690-1404 島根県松江市八束町波入２０６０,35.4948401,133.1723285
仁摩サンドミュージアム,日本、〒699-2305 島根県大田市仁摩町天河内９７５,35.1464144,132.4046628
水の国,日本、〒699-4505 島根県江津市桜江町坂本２０２５ 水の国,34.9630807,132.4261866
和鋼博物館,日本、〒692-0011 島根県安来市安来町１０５８,35.4353855,133.2535014
山口県,日本、山口県,34.2796769,131.5212742
下関市立考古博物館,日本、〒751-0866 山口県下関市綾羅木４５４ 下関市立考古博物館,34.011318,130.9260579
萩市自然と歴史の展示館,日本、〒758-0061 山口県萩市椿３５３７−３,34.3938918,131.40102
萩博物館,日本、〒758-0057 山口県萩市堀内３５５,34.4130846,131.3903813
山口市歴史民俗資料館,日本、〒753-0073 山口県山口市春日町５−１,34.182821,131.470269
山口県立山口博物館,日本、〒753-0073 山口県山口市春日町８−２,34.1824528,131.4727822
緑と花と彫刻の博物館•ときわミュージアム,日本、〒755-0025 山口県宇部市野中３丁目４−２９号,33.9486878,131.2817903
美祢市立秋吉台科学博物館,日本、〒754-0511 山口県美祢市秋芳町秋吉１１２３７−９３８,34.2350233,131.3073126
四国,日本、四国,33.7432238,133.6375314
香川県,日本、香川県,34.2225915,134.0199152
石の民俗資料館,日本、〒761-0121 香川県高松市牟礼町牟礼１８１０,34.3526854,134.1340133
香川県立ミュージアム,日本、〒760-0030 香川県高松市玉藻町５−５,34.3497018,134.0532947
鎌田共済会郷土博物館,日本、〒762-0044 香川県坂出市本町１丁目１−２４,34.3133386,133.8519959
四国村,日本、〒761-0112 香川県高松市屋島中町９１,34.3442502,134.108905
小豆島尾崎放哉記念館,日本、〒761-4101 香川県小豆郡土庄町甲１０８２,34.4815257,134.1867483
ジョージナカシマ記念館,日本、〒761-0122 香川県高松市牟礼町大町１１３２−１,34.335269,134.152881
塩飽勤番所,日本、〒763-0223 香川県丸亀市本島町泊８１,34.3878583,133.7838583
瀬戸大橋記念館,日本、〒762-0065 香川県坂出市番の州緑町６−１３,34.3526791,133.8260572
瀬戸内海歴史民俗資料館,日本、〒761-8001 香川県高松市亀水町１４１２−２,34.3781909,133.9309832
壺井栄文学館,日本、〒761-4424 香川県小豆郡小豆島町町田浦甲９７７−９３１,34.4454909,134.285029
とらまる人形劇ミュージアム,日本、〒769-2604 香川県東かがわ市西村１１５５,34.2399717,134.3148831
丸亀市うちわの港ミュージアム,日本、〒763-0042 香川県丸亀市港町３０７−１５,34.2970364,133.7934847
丸亀市立資料館,日本、〒763-0025 香川県丸亀市一番丁（城内）,34.2857625,133.7983344
陸上自衛隊善通寺駐屯地資料館,日本、〒765-0053 香川県善通寺市生野町１８２１−２,34.220137,133.7822068
愛媛県,日本、愛媛県,33.6025306,132.7857583
五十崎凧博物館,日本、〒795-0301 愛媛県喜多郡内子町五十崎甲１４３７,33.5396289,132.656489
伊丹十三記念館,日本、〒790-0932 愛媛県松山市東石井１丁目６−１０,33.8180264,132.7781233
今治市村上海賊ミュージアム,日本、〒794-2203 愛媛県今治市宮窪町宮窪１２８５,34.168955,133.087651
宇和島市立伊達博物館,日本、〒798-0061 愛媛県宇和島市御殿町９−１４,33.215877,132.562668
宇和島市立歴史資料館,日本、〒798-0003 愛媛県宇和島市住吉町２丁目４−３６,33.226432,132.554636
愛媛県生涯学習センター,日本、〒791-1136 愛媛県松山市上野町甲６５０,33.774916,132.8022557
愛媛県総合科学博物館,日本、〒792-0060 愛媛県新居浜市大生院２１３３−２,33.910055,133.244822
愛媛県歴史文化博物館,日本、〒797-0015 愛媛県西予市宇和町卯之町４丁目１１−２,33.3644907,132.518649
愛媛大学ミュージアム,日本、〒790-0826 愛媛県松山市文京町３,33.8498879,132.7715654
面河山岳博物館,日本、〒791-1710 愛媛県上浮穴郡久万高原町若山650番地1,33.7151897,133.0932461
開明学校,日本、〒797-0015 愛媛県西予市宇和町卯之町３丁目１１０,33.3642235,132.5136075
紙のまち資料館,日本、〒799-0101 愛媛県四国中央市川之江町４０６９−１,34.0079388,133.5734939
かわのえ高原ふるさと館,日本、〒799-0101 愛媛県四国中央市川之江町２２１７−８３,34.0097897,133.579911
来島海峡展望館,日本、〒799-2111 愛媛県今治市小浦町２丁目５−２,34.1140186,132.9778337
坂の上の雲ミュージアム,日本、〒790-0001 愛媛県松山市一番町３丁目２０,33.8416938,132.7692458
四国鉄道文化館,,,
砥部焼伝統産業会館,日本、〒791-2132 愛媛県伊予郡砥部町大南３３５,33.7390497,132.7919496
広瀬歴史記念館,日本、〒792-0046 愛媛県新居浜市上原２丁目１０−４２,33.9188817,133.285651
別子銅山記念館,日本、〒792-0844 愛媛県新居浜市角野新田町３丁目１３,33.9213803,133.3093457
松山市考古館,日本、〒791-8032 愛媛県松山市南斎院町乙６７-６,33.8398448,132.7353034
松山市立子規記念博物館,日本、〒790-0857 愛媛県松山市道後公園１−３０,33.8496927,132.7871387
村上三島記念館（今治市上浦歴史民俗資料館）,日本、〒794-1402 愛媛県今治市上浦町井口７５０５,34.2558672,133.0534968
徳島県,日本、徳島県,33.9419655,134.3236557
藍の館,日本、〒771-1212 徳島県板野郡藍住町徳命前須西１７２ １７２番地,34.1149376,134.4825497
あすたむらんど徳島,日本、〒779-0111 徳島県板野郡板野町那東キビガ谷４５−２２ あすたむらんど 徳島,34.1519287,134.441693
阿南市科学センター,日本、〒779-1243 徳島県阿南市那賀川町上福井南川渕８−１,33.948858,134.681727
阿波おどり会館,日本、〒770-0904 徳島県徳島市新町橋２丁目２０番地 阿波おどり会館２階,34.0701638,134.5449903
阿波銀プラザ,日本、〒770-0912 徳島県徳島市東新町１丁目２９,34.0706106,134.5473416
阿波十郎兵衛屋敷,日本、〒771-0114 徳島県徳島市川内町宮島本浦１８４,34.0915019,134.5841884
阿波木偶館,,,
阿波木偶人形会館,日本、〒771-0114 徳島県徳島市川内町宮島本浦２２６−１,34.091834,134.584876
阿波の藍染しじら館,日本、〒779-3122 徳島県徳島市国府町府中４３２ 藍らんど こくふ,34.075995,134.4811837
大うなぎ水族館イーランド,,,
川田民俗資料館,,,
こくふ街角博物館,日本、〒511-0251 三重県員弁郡東員町山田１７００,35.0732122,136.5861826
徳島県郷土文化会館,日本、〒770-0835 徳島県徳島市藍場町２丁目１４,34.0750473,134.5462638
徳島県立大鳴門橋架橋記念館,日本、〒772-0053 徳島県鳴門市鳴門町土佐泊浦福池６５ 鳴門公園内,34.2348747,134.6401672
徳島県立鳥居龍蔵記念博物館,日本、〒770-8070 徳島県徳島市八万町寺山１,34.039851,134.5264401
徳島県立文学書道館,日本、〒770-0807 徳島県徳島市中前川町２丁目２２−１,34.0800431,134.5539372
徳島県立博物館,日本、〒770-8070 徳島県徳島市八万町向寺山,34.0396126,134.5261327
徳島県立文書館,日本、〒770-8070 徳島県徳島市八万町向寺山１,34.0394796,134.5286923
徳島県立埋蔵文化財総合センター,日本、〒779-0108 徳島県板野郡板野町犬伏平山８６−２,34.1430847,134.451431
徳島市立考古資料館,日本、〒779-3127 徳島県徳島市国府町西矢野 字奥谷10番地の1,34.060732,134.4692361
徳島市天狗久資料館,日本、〒779-3121 徳島県徳島市国府町和田居内１７２ 徳島市天狗久資料館,34.0722792,134.4927516
徳島市立徳島城博物館,日本、〒770-0851 徳島県徳島市徳島町１−８,34.0733693,134.5557269
鳴門市ドイツ館,日本、〒779-0225 徳島県鳴門市大麻町桧東山田５５−２,34.1647751,134.4990482
パゴダ平和記念塔,日本、〒770-0908 徳島県徳島市眉山町茂助ケ原９,34.0668472,134.5378417
日和佐うみがめ博物館カレッタ,日本、〒779-2304 徳島県海部郡美波町日和佐浦３７０−４,33.7346321,134.5409804
松茂町歴史民俗資料館・人形浄瑠璃芝居資料館,日本、〒771-0220 徳島県板野郡松茂町広島四番越１１−１,34.1364102,134.5824451
モラエス館,日本、〒770-0908 徳島県徳島市眉山町茂助ケ原１,34.0673249,134.5378739
技の館,日本、〒771-1310 徳島県板野郡上板町泉谷原東３２−４,34.1319717,134.397266
高知県,日本、高知県,33.5481246,133.2521507
いの町紙の博物館,日本、〒781-2103 高知県吾川郡いの町幸町１１０−１,33.5476768,133.4231853
旧山内家下屋敷長屋,日本、〒780-0862 高知県高知市鷹匠町１丁目３−３５,33.5560039,133.5332136
高知県立坂本龍馬記念館,日本、〒781-0262 高知県高知市浦戸 城山 830番地,33.4964751,133.5718756
高知県立文学館,日本、〒780-0850 高知県高知市丸ノ内１丁目１−２０,33.5616914,133.533456
高知県立歴史民俗資料館,日本、〒783-0044 高知県南国市岡豊町１０９９−１,33.5958448,133.6234746
高知市立自由民権記念館,日本、〒781-8010 高知県高知市桟橋通４丁目１４−３,33.543131,133.550286
高知市立龍馬の生まれたまち記念館,日本、〒780-0901 高知県高知市上町２丁目６−３３,33.5565,133.5245
佐川町立青山文庫,日本、〒789-1201 高知県高岡郡佐川町甲１４５３−１,33.4979444,133.2886984
四国自動車博物館,日本、〒781-5233 高知県香南市野市町大谷８９６,33.569395,133.701016
中岡慎太郎館,日本、〒781-6449 高知県安芸郡北川村柏木１４０,33.4564402,134.0569584
はらたいらと世界のオルゴールの館,,,
梼原町立歴史民俗資料館,日本、〒785-0610 高知県高岡郡梼原町梼原１４２８−１,33.3913606,132.9269857
龍馬歴史館,日本、〒781-5233 高知県香南市野市町大谷９２８−１,33.5683987,133.7002122
九州,日本、九州,32.59,130.8
福岡県,日本、福岡県,33.5662559,130.715857
九州国立博物館,日本、〒818-0118 福岡県太宰府市石坂４丁目７−２,33.5182577,130.5381226
福岡市博物館,日本、〒814-0001 福岡県福岡市早良区百道浜３丁目１−１,33.589786,130.353064
佐賀県,日本、佐賀県,33.3078371,130.2271243
佐賀県立博物館,日本、〒840-0041 佐賀県佐賀市城内１丁目１５ 佐賀県立博物館,33.2449988,130.3004864
佐賀県立宇宙科学館,日本、〒843-0021 佐賀県武雄市武雄町大字永島１６３５１,33.1791421,130.035404
佐賀県立名護屋城博物館,日本、〒847-0401 佐賀県唐津市鎮西町名護屋１９３１−３,33.5277248,129.8702281
長崎県,日本、長崎県,33.2488525,129.6930912
長崎歴史文化博物館,日本、〒850-0007 長崎県長崎市立山１丁目１−１,32.7529073,129.8794878
熊本県,日本、熊本県,32.8594427,130.7969149
熊本県立装飾古墳館,日本、〒861-0561 熊本県山鹿市鹿央町岩原３０８５ 熊本県立装飾古墳館,32.993722,130.669767
熊本市立熊本博物館,日本、〒860-0007 熊本県熊本市中央区古京町３−２,32.808611,130.699286
熊本市塚原歴史民俗資料館,日本、〒861-4226 熊本県熊本市南区城南町塚原１９２４,32.692134,130.7376607
山鹿市立博物館,日本、熊本県山鹿市,33.0177211,130.6912829
御船町恐竜博物館,日本、〒861-3207 熊本県上益城郡御船町御船９９５−６,32.713812,130.801785
八代市立博物館・未来の森ミュージアム,日本、〒866-0863 熊本県八代市西松江城町１２−３５,32.508234,130.596613
阿蘇火山博物館,日本、〒869-2231 熊本県阿蘇市赤水１９３０−１,32.8855511,131.0521423
大分県,日本、大分県,33.1589299,131.3611121
大分県立歴史博物館,日本、〒872-0101 大分県宇佐市高森字京塚７１０,33.5425686,131.3654194
宮崎県,日本、宮崎県,32.6036022,131.441251
宮崎県総合博物館,日本、〒880-0053 宮崎県宮崎市神宮２丁目４−４,31.9399547,131.4237782
宮崎県立西都原考古博物館,日本、〒881-0005 宮崎県西都市三宅５６７０,32.1249594,131.3827629
鹿児島県,日本、鹿児島県,31.3911958,130.8778586
宇宙科学技術館（種子島）,日本、〒891-3703 鹿児島県熊毛郡南種子町茎永９９９９−７ 種子島宇宙センター宇宙科学技術館,30.374865,130.9576461
宇宙科学技術館（内之浦）,日本、〒893-1402 鹿児島県肝属郡肝付町南方１７９１−１３,31.2512669,131.0761271
鹿児島県立博物館,日本、〒892-0853 鹿児島県鹿児島市城山町１−１,31.5939457,130.5526569
鹿児島市立科学館,日本、〒890-0063 鹿児島県鹿児島市鴨池２丁目３１−１８ 鹿児島市立図書館．科学館,31.5634149,130.554618
鹿児島県歴史資料センター黎明館,日本、〒892-0853 鹿児島県鹿児島市城山町７−２,31.5985585,130.5548248
鹿児島大学総合研究博物館,日本、〒890-0065 鹿児島県鹿児島市郡元１丁目２１−３０,31.5716227,130.5460619
西郷南洲顕彰館,日本、〒892-0851 鹿児島県鹿児島市上竜尾町２−１,31.6059114,130.5582566
維新ふるさと館,日本、〒892-0846 鹿児島県鹿児島市加治屋町２３−１,31.5846385,130.5477922
石橋記念館,日本、〒892-0812 鹿児島県鹿児島市浜町１−３,31.6040571,130.5675335
鹿児島県上野原縄文の森,日本、〒899-4318 鹿児島県霧島市国分上野原縄文の森１−１,31.7116515,130.8007857
指宿市考古博物館,日本、〒891-0403 鹿児島県指宿市十二町２２９０,31.2317313,130.6443091
薩摩川内市川内歴史資料館,日本、〒895-0072 鹿児島県薩摩川内市中郷２丁目２−６,31.832774,130.308518
奄美市歴史民俗資料館,日本、〒894-0624 鹿児島県奄美市笠利町大字須野６７０,28.4715272,129.7134434
奄美市立奄美博物館,日本、〒894-0036 鹿児島県奄美市名瀬長浜町５１７,28.3982837,129.4945068
瀬戸内町立郷土館,日本、〒894-1509 鹿児島県大島郡瀬戸内町古仁屋瀬久井東１２８３−１７,28.1379642,129.3198852
宇検村生涯学習センター「元気の出る館」,日本、〒894-3301 鹿児島県大島郡宇検村湯湾２９３７−８３,28.2754594,129.2962673
財団法人奄美文化財団　原野農芸博物館,日本、〒894-1204 鹿児島県奄美市住用町大字山間８１７,28.246064,129.409789
和泊町歴史民俗資料館,日本、〒891-9121 鹿児島県大島郡和泊町根折１３０７,27.3905058,128.6147459
沖縄県,日本、沖縄県,26.1201911,127.7025012
国立施設,日本、東京都国立市,35.6839668,139.4413867
琉球大学博物館・風樹館,日本、〒903-0129 沖縄県中頭郡西原町千原１,26.2502205,127.7646882
国立劇場おきなわ,日本、〒901-2122 沖縄県浦添市勢理客４丁目１４−１,26.2461929,127.6887076
県立,,,
沖縄県立博物館・美術館,日本、〒900-0006 沖縄県那覇市おもろまち３丁目１−１,26.2273138,127.6938489
沖縄県平和祈念資料館,日本、〒901-0333 沖縄県糸満市摩文仁６１４−１,26.0965744,127.7254417
沖縄平和祈念堂,日本、〒901-0333 沖縄県糸満市摩文仁４４８,26.0977827,127.7238623
市町村立,,,
伊是名村ふれあい民俗館,日本、〒905-0604 沖縄県島尻郡伊是名村伊是名１９６−１２９,26.922558,127.941012
東村立山と水の生活博物館,日本、〒905-1203 沖縄県国頭郡東村川田６１−１,26.641156,128.167091
本部町立博物館,日本、〒905-0212 沖縄県国頭郡本部町大浜８７４−１,26.6559022,127.8837179
今帰仁村歴史文化センター,日本、〒905-0428 沖縄県国頭郡今帰仁村今泊５１１０,26.6917167,127.9271889
名護博物館,日本、〒905-0021 沖縄県名護市東江１丁目８−１１,26.5861805,127.9869445
宜野座村立博物館,日本、〒904-1302 沖縄県国頭郡宜野座村宜野座２３２,26.482884,127.972717
恩納村博物館,日本、〒904-0415 沖縄県国頭郡恩納村仲泊１６５６−８,26.4365869,127.7934814
うるま市立石川歴史民俗資料館,日本、〒904-1107 沖縄県うるま市石川曙２丁目１−５５,26.421916,127.825334
うるま市立与那城歴史民俗資料館,日本、〒904-2305 沖縄県うるま市与那城中央１,26.3296352,127.9045542
うるま市立海の文化資料館,日本、〒904-2427 沖縄県うるま市与那城屋平4−番地 海の駅あやはし館２階,26.3325844,127.929056
読谷村立歴史民俗資料館,日本、沖縄県中頭郡読谷村,26.3960774,127.7444117
読谷村立美術館,日本、〒904-0301 沖縄県中頭郡読谷村座喜味７０８−６,26.4069293,127.742377
沖縄市立郷土博物館,日本、〒904-0031 沖縄県沖縄市上地２丁目１９−６ 文化センタ ４Ｆ,26.331654,127.795123
沖縄市戦後文化資料展示室　ヒストリート,日本、〒904-0004 沖縄県沖縄市中央２丁目２−１,26.3370935,127.7972205
宜野湾市立博物館,日本、〒901-2224 沖縄県宜野湾市真志喜１丁目２５−１,26.2698199,127.7406264
中城村護佐丸歴史資料図書館,日本、〒901-2407 沖縄県中頭郡中城村安里２１５,26.259532,127.7903586
浦添市美術館,日本、〒901-2103 沖縄県浦添市仲間１丁目９−２,26.25,127.7194444
那覇市立壺屋焼物博物館,日本、〒902-0065 沖縄県那覇市壺屋１丁目９−３２,26.2138926,127.6908904
那覇市歴史博物館,日本、〒900-0015 沖縄県那覇市久茂地１丁目１−１,26.2136335,127.6790824
南風原町立南風原文化センター,日本、〒901-1113 沖縄県島尻郡南風原町喜屋武２５７ 南風原町立 南風原文化センター,26.186912,127.7305371
沖縄陸軍病院南風原壕群20号壕,日本、〒901-1113 沖縄県島尻郡南風原町喜屋武,26.187748,127.7329281
豊見城市歴史民俗資料展示室,日本、〒901-0232 沖縄県豊見城市伊良波３９２,26.1738039,127.6744846
八重瀬町立具志頭歴史民俗資料館,日本、〒901-0512 沖縄県島尻郡八重瀬町字具志頭３５２,26.122492,127.743555
久米島博物館,日本、〒901-3121 沖縄県島尻郡久米島町嘉手苅５４２,26.3416475,126.7637514
南大東村立ふるさと文化センター,日本、〒901-3805 沖縄県島尻郡南大東村在所,25.8290633,131.2295487
宮古島市総合博物館,日本、〒906-0011 沖縄県宮古島市平良東仲宗根添１１６６−２８７,24.7965306,125.3178511
宮古島海宝館,日本、〒906-0101 沖縄県宮古島市城辺保良５９１−１,24.7300505,125.4293626
多良間村ふるさと民俗学習館,日本、〒906-0602 沖縄県宮古郡多良間村仲筋１０９８−１,24.6703048,124.6961596
石垣市立八重山博物館,日本、〒907-0004 沖縄県石垣市登野城４−１,24.3380717,124.1595495
私立,,,
島村屋観光公園民具館,,,
反戦平和資料館 ヌチドゥタカラの家,日本、〒905-0502 沖縄県国頭郡伊江村東江前２３００−４,26.7106794,127.8253787
琉球村,日本、〒904-0416 沖縄県国頭郡恩納村山田１１３０,26.429469,127.775259
東南植物楽園＆風楽風遊の森,日本、〒904-2143 沖縄県沖縄市知花２１４６ 美らヤシパークオキナワ・東南植物楽園,26.3755374,127.8065709
沖縄こども未来ゾーン　沖縄こどもの国,日本、〒904-0021 沖縄県沖縄市胡屋５丁目７−１,26.3273737,127.8035013
諸見民芸館,日本、〒904-0032 沖縄県沖縄市諸見里３丁目１１−１０,26.327585,127.792143
国指定重要文化財　中村家住宅,日本、〒901-2314 沖縄県中頭郡北中城村大城１０６,26.2898777,127.8006433
佐喜眞美術館,日本、〒901-2204 沖縄県宜野湾市上原３５８,26.2780323,127.7748766
首里城公園,"1 Chome-2 Shurikinjocho, Naha, Okinawa 903-0815 日本",26.2170449,127.7194833
対馬丸記念館,日本、〒901-0031 沖縄県那覇市若狭１丁目２５−３７,26.220092,127.6728151
旧海軍司令部壕,日本、〒901-0152 沖縄県那覇市小禄１０６６ 海軍壕公園（遊具は工事中のため使用不可）,26.1856326,127.6744781
おきなわワールド文化王国･玉泉洞,日本、〒901-0616 沖縄県南城市玉城前川１３３６,26.1404807,127.7489447
大石林山 沖縄石の文化博物館,日本、〒905-1422 沖縄県国頭郡国頭村宜名真１２４１ 大石林山,26.8614017,128.2545689
NPO法人 沖縄鍾乳洞協会 沖縄自然遊学資料館,日本、〒901-0416 沖縄県島尻郡八重瀬町宜次２３１−１０４,26.1726243,127.7160943
ひめゆり平和祈念資料館,日本、〒901-0344 沖縄県糸満市伊原６７１−１,26.0964576,127.6903934
みんさー工芸館,日本、〒907-0004 沖縄県石垣市登野城９０９,24.341645,124.170885
南嶋民俗資料館,日本、〒907-0022 沖縄県石垣市大川１８８,24.3409118,124.158903
喜宝院蒐集館,日本、〒907-1101 沖縄県八重山郡竹富町竹富１０８,24.3316799,124.0842256
黒島研究所,日本、〒907-1311 沖縄県八重山郡竹富町黒島１３６,24.2400436,123.9935244
南風資料館,日本、〒907-1434 沖縄県八重山郡竹富町南風見２０１−３７,24.2736341,123.8797571
博物館協会,日本、〒110-0007 東京都台東区上野公園１２−５２ 黒田記念館 ３階 別館,35.7188374,139.7730678
沖縄県博物館協会,日本、沖縄県,26.1201911,127.7025012