{"type":"FeatureCollection","features":[{"type":"Feature","properties":{"title":"埼玉県立歴史と民俗の博物館","marker-color":"#ff2600","marker-size":"medium"},"geometry":{"coordinates":[139.6298005,35.9212089],"type":"Point"}},{"type":"Feature","properties":{"title":"さいたま市宇宙劇場","marker-color":"#ff2600","marker-size":"medium"},"geometry":{"coordinates":[139.6215851,35.9080235],"type":"Point"}},{"type":"Feature","properties":{"title":"さいたま市博物館","marker-color":"#ff2600","marker-size":"medium"},"geometry":{"coordinates":[139.6454782,35.8616486],"type":"Point"}},{"type":"Feature","properties":{"title":"浦和博物館","marker-color":"#ff2600","marker-size":"medium"},"geometry":{"coordinates":[139.6776385,35.8905082],"type":"Point"}},{"type":"Feature","properties":{"title":"岩槻人形博物館","marker-color":"#ff2600","marker-size":"medium"},"geometry":{"coordinates":[139.6999235,35.9509269],"type":"Point"}},{"type":"Feature","properties":{"title":"丸木美術館","marker-color":"#ff2600","marker-size":"medium"},"geometry":{"coordinates":[139.3521511,36.0282761],"type":"Point"}},{"type":"Feature","properties":{"title":"埼玉県自然の博物館","marker-color":"#ff2600","marker-size":"medium"},"geometry":{"coordinates":[139.1161111,36.0875],"type":"Point"}},{"type":"Feature","properties":{"title":"うらわ美術館","marker-color":"#ff2600","marker-size":"medium"},"geometry":{"coordinates":[139.6526758,35.8608315],"type":"Point"}},{"type":"Feature","properties":{"title":"さいたま市青少年宇宙科学館","marker-color":"#ff2600","marker-size":"medium"},"geometry":{"coordinates":[139.6647975,35.8721706],"type":"Point"}},{"type":"Feature","properties":{"title":"千葉県立中央博物館","marker-color":"#ff2600","marker-size":"medium"},"geometry":{"coordinates":[140.1384005,35.5998298],"type":"Point"}},{"type":"Feature","properties":{"title":"飛騨みやがわ博物館","marker-color":"#ff2600","marker-size":"medium"},"geometry":{"coordinates":[137.1862369,36.2381492],"type":"Point"}},{"type":"Feature","properties":{"title":"群馬県立歴史博物館","marker-color":"#ff2600","marker-size":"medium"},"geometry":{"coordinates":[139.0792432,36.2984468],"type":"Point"}},{"type":"Feature","properties":{"title":"群馬県立自然史博物館","marker-color":"#ff2600","marker-size":"medium"},"geometry":{"coordinates":[138.8669273,36.2698979],"type":"Point"}},{"type":"Feature","properties":{"title":"茨城県立歴史博物館","marker-color":"#ff2600","marker-size":"medium"},"geometry":{"coordinates":[140.4498119,36.3790513],"type":"Point"}},{"type":"Feature","properties":{"title":"ミュージアムパーク茨城県立自然博物館","marker-color":"#ff2600","marker-size":"medium"},"geometry":{"coordinates":[139.9162694,36.0049307],"type":"Point"}},{"type":"Feature","properties":{"title":"神奈川　生命の星・地球博物館","marker-color":"#ff2600","marker-size":"medium"},"geometry":{"coordinates":[139.121663,35.2394963],"type":"Point"}},{"type":"Feature","properties":{"title":"神奈川県立歴史博物館","marker-color":"#ff2600","marker-size":"medium"},"geometry":{"coordinates":[139.6366414,35.4491011],"type":"Point"}},{"type":"Feature","properties":{"title":"長野市立博物館","marker-color":"#ff2600","marker-size":"medium"},"geometry":{"coordinates":[138.1886054,36.5918006],"type":"Point"}},{"type":"Feature","properties":{"title":"長野県立歴史館","marker-color":"#ff2600","marker-size":"medium"},"geometry":{"coordinates":[138.1352479,36.5342695],"type":"Point"}},{"type":"Feature","properties":{"title":"新潟県立歴史博物館","marker-color":"#ff2600","marker-size":"medium"},"geometry":{"coordinates":[138.7673549,37.4383931],"type":"Point"}},{"type":"Feature","properties":{"title":"新潟県立自然科学館","marker-color":"#ff2600","marker-size":"medium"},"geometry":{"coordinates":[139.049752,37.890746],"type":"Point"}},{"type":"Feature","properties":{"title":"山梨県立歴史博物館","marker-color":"#ff2600","marker-size":"medium"},"geometry":{"coordinates":[138.6486098,35.6402901],"type":"Point"}},{"type":"Feature","properties":{"title":"山梨県立博物館","marker-color":"#ff2600","marker-size":"medium"},"geometry":{"coordinates":[138.6486098,35.6402901],"type":"Point"}}]}